{
    "SE01": {
        "icao": "SE01",
        "iata": "",
        "name": "Alba Elena Airport",
        "city": "Rocafuerte",
        "state": "Guayas",
        "country": "EC",
        "elevation": 150,
        "lat": -2.166670084,
        "lon": -79.2833023071,
        "tz": "America\/Guayaquil"
    },
    "SE02": {
        "icao": "SE02",
        "iata": "",
        "name": "Guabital Airport",
        "city": "Soledad",
        "state": "Guayas",
        "country": "EC",
        "elevation": 45,
        "lat": -2.7733900547,
        "lon": -79.7024993896,
        "tz": "America\/Guayaquil"
    },
    "SE03": {
        "icao": "SE03",
        "iata": "",
        "name": "Las Penas Airport",
        "city": "Isla Puna",
        "state": "Guayas",
        "country": "EC",
        "elevation": 3,
        "lat": -2.9471600056,
        "lon": -80.1007003784,
        "tz": "America\/Guayaquil"
    },
    "SE08": {
        "icao": "SE08",
        "iata": "",
        "name": "San Carlos Costa Airport",
        "city": "Lorenzo de Garaicoa",
        "state": "Guayas",
        "country": "EC",
        "elevation": 21,
        "lat": -2.0547199249,
        "lon": -79.4330978394,
        "tz": "America\/Guayaquil"
    },
    "SE09": {
        "icao": "SE09",
        "iata": "",
        "name": "San Rafael Airport",
        "city": "San Rafael",
        "state": "Guayas",
        "country": "EC",
        "elevation": 190,
        "lat": -2.1816699505,
        "lon": -79.2367019653,
        "tz": "America\/Guayaquil"
    },
    "SE10": {
        "icao": "SE10",
        "iata": "",
        "name": "Vinces Airport",
        "city": "Vinces",
        "state": "Los-Rios",
        "country": "EC",
        "elevation": 32,
        "lat": -1.5961099863,
        "lon": -79.7260971069,
        "tz": "America\/Guayaquil"
    },
    "SE11": {
        "icao": "SE11",
        "iata": "",
        "name": "Km 60 Airport",
        "city": "Consumulo",
        "state": "Santo-Domingo-de-los-Tsachilas",
        "country": "EC",
        "elevation": 1640,
        "lat": -0.5366669893,
        "lon": -79.3688964844,
        "tz": "America\/Guayaquil"
    },
    "SE13": {
        "icao": "SE13",
        "iata": "",
        "name": "Babahoyo North Airport",
        "city": "Babahoyo",
        "state": "Los-Rios",
        "country": "EC",
        "elevation": 29,
        "lat": -1.7033530474,
        "lon": -79.5380477905,
        "tz": "America\/Guayaquil"
    },
    "SE14": {
        "icao": "SE14",
        "iata": "",
        "name": "San Carlos Airport",
        "city": "Jose Real",
        "state": "Guayas",
        "country": "EC",
        "elevation": 126,
        "lat": -2.1665520668,
        "lon": -79.4337005615,
        "tz": "America\/Guayaquil"
    },
    "SE15": {
        "icao": "SE15",
        "iata": "",
        "name": "Quevedo North Airport",
        "city": "Quevedo",
        "state": "Los-Rios",
        "country": "EC",
        "elevation": 314,
        "lat": -0.999826014,
        "lon": -79.4153594971,
        "tz": "America\/Guayaquil"
    },
    "SE16": {
        "icao": "SE16",
        "iata": "",
        "name": "Loja Airport",
        "city": "Loja",
        "state": "Loja",
        "country": "EC",
        "elevation": 7684,
        "lat": -3.8814239502,
        "lon": -79.2347488403,
        "tz": "America\/Guayaquil"
    },
    "SE22": {
        "icao": "SE22",
        "iata": "",
        "name": "Celia Maria Airport",
        "city": "Pasaje",
        "state": "El-Oro",
        "country": "EC",
        "elevation": 110,
        "lat": -3.2793300152,
        "lon": -79.8009033203,
        "tz": "America\/Guayaquil"
    },
    "SE58": {
        "icao": "SE58",
        "iata": "",
        "name": "Banasur Airport",
        "city": "Buenavista",
        "state": "El-Oro",
        "country": "EC",
        "elevation": 30,
        "lat": -3.3409399986,
        "lon": -79.8638000488,
        "tz": "America\/Guayaquil"
    },
    "SE59": {
        "icao": "SE59",
        "iata": "",
        "name": "La Mina Airport",
        "city": "El Guabo",
        "state": "El-Oro",
        "country": "EC",
        "elevation": 13,
        "lat": -3.20291996,
        "lon": -79.7982025146,
        "tz": "America\/Guayaquil"
    },
    "SE60": {
        "icao": "SE60",
        "iata": "",
        "name": "La Puntilla Airport",
        "city": "La Puntilla",
        "state": "Canar",
        "country": "EC",
        "elevation": 45,
        "lat": -2.4428501129,
        "lon": -79.3989028931,
        "tz": "America\/Guayaquil"
    },
    "SEAM": {
        "icao": "SEAM",
        "iata": "ATF",
        "name": "Chachoan Airport",
        "city": "Ambato",
        "state": "Tungurahua",
        "country": "EC",
        "elevation": 8502,
        "lat": -1.2120699883,
        "lon": -78.5746002197,
        "tz": "America\/Guayaquil"
    },
    "SEAP": {
        "icao": "SEAP",
        "iata": "",
        "name": "Arapicos Airport",
        "city": "Sangay",
        "state": "Morona-Santiago",
        "country": "EC",
        "elevation": 2920,
        "lat": -1.8576200008,
        "lon": -77.9413986206,
        "tz": "America\/Guayaquil"
    },
    "SEAR": {
        "icao": "SEAR",
        "iata": "",
        "name": "Arajuno Airport",
        "city": "Arajuno",
        "state": "Napo",
        "country": "EC",
        "elevation": 1700,
        "lat": -1.235730052,
        "lon": -77.6854019165,
        "tz": "America\/Guayaquil"
    },
    "SEAS": {
        "icao": "SEAS",
        "iata": "",
        "name": "Ascazubi Airport",
        "city": "Ascazubi",
        "state": "Pichincha",
        "country": "EC",
        "elevation": 9517,
        "lat": -0.0833332986,
        "lon": -78.2833328247,
        "tz": "America\/Guayaquil"
    },
    "SEAY": {
        "icao": "SEAY",
        "iata": "",
        "name": "Ayangue Airport",
        "city": "San Pedro",
        "state": "Santa-Elena",
        "country": "EC",
        "elevation": 18,
        "lat": -1.9777779579,
        "lon": -80.739440918,
        "tz": "America\/Guayaquil"
    },
    "SEBF": {
        "icao": "SEBF",
        "iata": "",
        "name": "Buena Fe Airport",
        "city": "Buena Fe",
        "state": "Los-Rios",
        "country": "EC",
        "elevation": 320,
        "lat": -0.8981379867,
        "lon": -79.4855422974,
        "tz": "America\/Guayaquil"
    },
    "SECH": {
        "icao": "SECH",
        "iata": "",
        "name": "Chone Airport",
        "city": "Chone",
        "state": "Manabi",
        "country": "EC",
        "elevation": 51,
        "lat": -0.6951010227,
        "lon": -80.0886001587,
        "tz": "America\/Guayaquil"
    },
    "SECM": {
        "icao": "SECM",
        "iata": "",
        "name": "Hacienda Clementina Airport",
        "city": "Pozuelos",
        "state": "Los-Rios",
        "country": "EC",
        "elevation": 328,
        "lat": -1.7062699795,
        "lon": -79.3788986206,
        "tz": "America\/Guayaquil"
    },
    "SECO": {
        "icao": "SECO",
        "iata": "OCC",
        "name": "Francisco De Orellana Airport",
        "city": "Coca",
        "state": "Napo",
        "country": "EC",
        "elevation": 834,
        "lat": -0.4628860056,
        "lon": -76.9868011475,
        "tz": "America\/Guayaquil"
    },
    "SECQ": {
        "icao": "SECQ",
        "iata": "",
        "name": "Coaque Airport",
        "city": "Coaque",
        "state": "",
        "country": "EC",
        "elevation": 131,
        "lat": 9.999e-7,
        "lon": -80.0999984741,
        "tz": "America\/Guayaquil"
    },
    "SECR": {
        "icao": "SECR",
        "iata": "",
        "name": "Curaray Airport",
        "city": "Curacay",
        "state": "Pastaza",
        "country": "EC",
        "elevation": 832,
        "lat": -1.3780299425,
        "lon": -76.939201355,
        "tz": "America\/Guayaquil"
    },
    "SECU": {
        "icao": "SECU",
        "iata": "CUE",
        "name": "Mariscal Lamar Airport",
        "city": "Cuenca",
        "state": "Azuay",
        "country": "EC",
        "elevation": 8306,
        "lat": -2.8894701004,
        "lon": -78.9843978882,
        "tz": "America\/Guayaquil"
    },
    "SEGE": {
        "icao": "SEGE",
        "iata": "",
        "name": "Guale Airport",
        "city": "Guale",
        "state": "Manabi",
        "country": "EC",
        "elevation": 222,
        "lat": -1.6166700125,
        "lon": -80.2332992554,
        "tz": "America\/Guayaquil"
    },
    "SEGS": {
        "icao": "SEGS",
        "iata": "GPS",
        "name": "Seymour Airport",
        "city": "Baltra",
        "state": "Galapagos",
        "country": "EC",
        "elevation": 207,
        "lat": -0.4537580013,
        "lon": -90.2658996582,
        "tz": "Pacific\/Galapagos"
    },
    "SEGU": {
        "icao": "SEGU",
        "iata": "GYE",
        "name": "Simon Bolivar International Airport",
        "city": "Guayaquil",
        "state": "Guayas",
        "country": "EC",
        "elevation": 19,
        "lat": -2.15741992,
        "lon": -79.8835983276,
        "tz": "America\/Guayaquil"
    },
    "SEGZ": {
        "icao": "SEGZ",
        "iata": "",
        "name": "Gualaquiza Airport",
        "city": "Santiago",
        "state": "Morona-Santiago",
        "country": "EC",
        "elevation": 2640,
        "lat": -3.4232099056,
        "lon": -78.5670013428,
        "tz": "America\/Guayaquil"
    },
    "SEHI": {
        "icao": "SEHI",
        "iata": "",
        "name": "Cotachachi Airport",
        "city": "Cotacachi",
        "state": "Pichincha",
        "country": "EC",
        "elevation": 7824,
        "lat": -0.302940011,
        "lon": -78.2683029175,
        "tz": "America\/Guayaquil"
    },
    "SEIB": {
        "icao": "SEIB",
        "iata": "",
        "name": "Atahualpa Airport",
        "city": "Ibarra",
        "state": "Imbabura",
        "country": "EC",
        "elevation": 7304,
        "lat": 0.3384189904,
        "lon": -78.1363983154,
        "tz": "America\/Guayaquil"
    },
    "SEII": {
        "icao": "SEII",
        "iata": "IBB",
        "name": "General Villamil Airport",
        "city": "Isabela",
        "state": "Galapagos",
        "country": "EC",
        "elevation": 35,
        "lat": -0.942628026,
        "lon": -90.9530029297,
        "tz": "Pacific\/Galapagos"
    },
    "SEIS": {
        "icao": "SEIS",
        "iata": "",
        "name": "Isabel Maria Airport",
        "city": "America",
        "state": "Guayas",
        "country": "EC",
        "elevation": 20,
        "lat": -1.8666700125,
        "lon": -79.7332992554,
        "tz": "America\/Guayaquil"
    },
    "SEJI": {
        "icao": "SEJI",
        "iata": "JIP",
        "name": "Jipijapa Airport",
        "city": "Jipijapa",
        "state": "Manabi",
        "country": "EC",
        "elevation": 223,
        "lat": -1,
        "lon": -80.6666641235,
        "tz": "America\/Guayaquil"
    },
    "SEJM": {
        "icao": "SEJM",
        "iata": "",
        "name": "Jama Airport",
        "city": "Jama",
        "state": "Manabi",
        "country": "EC",
        "elevation": 37,
        "lat": -0.2014970034,
        "lon": -80.2654037476,
        "tz": "America\/Guayaquil"
    },
    "SEKK": {
        "icao": "SEKK",
        "iata": "",
        "name": "Km 192 Airport",
        "city": "Lagartera",
        "state": "Esmeraldas",
        "country": "EC",
        "elevation": 1247,
        "lat": 0.1842029989,
        "lon": -79.391998291,
        "tz": "America\/Guayaquil"
    },
    "SELI": {
        "icao": "SELI",
        "iata": "",
        "name": "Limoncocha Airport",
        "city": "Limoncocha",
        "state": "",
        "country": "EC",
        "elevation": 820,
        "lat": -0.4063630104,
        "lon": -76.6238021851,
        "tz": "America\/Guayaquil"
    },
    "SELJ": {
        "icao": "SELJ",
        "iata": "",
        "name": "Hacienda La Julia Airport",
        "city": "Julia",
        "state": "Los-Rios",
        "country": "EC",
        "elevation": 50,
        "lat": -1.7043800354,
        "lon": -79.5522994995,
        "tz": "America\/Guayaquil"
    },
    "SELM": {
        "icao": "SELM",
        "iata": "",
        "name": "Loma Larga Airport",
        "city": "Loma Larga",
        "state": "",
        "country": "EC",
        "elevation": 210,
        "lat": -1.5015799999,
        "lon": -79.4809036255,
        "tz": "America\/Guayaquil"
    },
    "SELT": {
        "icao": "SELT",
        "iata": "LTX",
        "name": "Cotopaxi International Airport",
        "city": "Latacunga",
        "state": "Cotopaxi",
        "country": "EC",
        "elevation": 9205,
        "lat": -0.906832993,
        "lon": -78.6157989502,
        "tz": "America\/Guayaquil"
    },
    "SEMA": {
        "icao": "SEMA",
        "iata": "MRR",
        "name": "Jose Maria Velasco Ibarra Airport",
        "city": "Macara",
        "state": "Loja",
        "country": "EC",
        "elevation": 1508,
        "lat": -4.3782300949,
        "lon": -79.9410018921,
        "tz": "America\/Guayaquil"
    },
    "SEMC": {
        "icao": "SEMC",
        "iata": "XMS",
        "name": "Coronel E Carvajal Airport",
        "city": "Macas",
        "state": "",
        "country": "EC",
        "elevation": 3452,
        "lat": -2.2991700172,
        "lon": -78.1207962036,
        "tz": "America\/Guayaquil"
    },
    "SEMH": {
        "icao": "SEMH",
        "iata": "MCH",
        "name": "General Manuel Serrano Airport",
        "city": "Machala",
        "state": "El-Oro",
        "country": "EC",
        "elevation": 11,
        "lat": -3.2688999176,
        "lon": -79.9616012573,
        "tz": "America\/Guayaquil"
    },
    "SEMO": {
        "icao": "SEMO",
        "iata": "",
        "name": "El Carmen Airport",
        "city": "Montalvo",
        "state": "Pastaza",
        "country": "EC",
        "elevation": 960,
        "lat": -2.0670099258,
        "lon": -76.9757003784,
        "tz": "America\/Guayaquil"
    },
    "SEMT": {
        "icao": "SEMT",
        "iata": "MEC",
        "name": "Eloy Alfaro International Airport",
        "city": "Manta",
        "state": "Manabi",
        "country": "EC",
        "elevation": 48,
        "lat": -0.9460780025,
        "lon": -80.6788024902,
        "tz": "America\/Guayaquil"
    },
    "SEMX": {
        "icao": "SEMX",
        "iata": "",
        "name": "Maragrosa Airport",
        "city": "Puerto Balao",
        "state": "Guayas",
        "country": "EC",
        "elevation": 18,
        "lat": -2.851099968,
        "lon": -79.8035964966,
        "tz": "America\/Guayaquil"
    },
    "SEMY": {
        "icao": "SEMY",
        "iata": "",
        "name": "Martinica Airport",
        "city": "Martinica",
        "state": "Los-Rios",
        "country": "EC",
        "elevation": 90,
        "lat": -1.7397199869,
        "lon": -79.6214981079,
        "tz": "America\/Guayaquil"
    },
    "SENL": {
        "icao": "SENL",
        "iata": "LGQ",
        "name": "Nueva Loja Airport",
        "city": "Lago Agrio",
        "state": "Sucumbios",
        "country": "EC",
        "elevation": 980,
        "lat": 0.0930560008,
        "lon": -76.8675003052,
        "tz": "America\/Guayaquil"
    },
    "SEPB": {
        "icao": "SEPB",
        "iata": "",
        "name": "Pedro Carbo Airport",
        "city": "Pecro Carbo",
        "state": "Guayas",
        "country": "EC",
        "elevation": 321,
        "lat": -1.8115930557,
        "lon": -80.232460022,
        "tz": "America\/Guayaquil"
    },
    "SEPC": {
        "icao": "SEPC",
        "iata": "",
        "name": "Patuca Airport",
        "city": "Patuca",
        "state": "Morona-Santiago",
        "country": "EC",
        "elevation": 1781,
        "lat": -2.7517199516,
        "lon": -78.2636032104,
        "tz": "America\/Guayaquil"
    },
    "SEPD": {
        "icao": "SEPD",
        "iata": "",
        "name": "Pedernales Airport",
        "city": "Pedernales",
        "state": "Manabi",
        "country": "EC",
        "elevation": 60,
        "lat": 0.0676190034,
        "lon": -80.0504989624,
        "tz": "America\/Guayaquil"
    },
    "SEPO": {
        "icao": "SEPO",
        "iata": "",
        "name": "Posorja Airport",
        "city": "Posorja",
        "state": "Guayas",
        "country": "EC",
        "elevation": 30,
        "lat": -2.6820299625,
        "lon": -80.2755966187,
        "tz": "America\/Guayaquil"
    },
    "SEPS": {
        "icao": "SEPS",
        "iata": "",
        "name": "Amable Calle Gutierrez Airport",
        "city": "Pasaje",
        "state": "El-Oro",
        "country": "EC",
        "elevation": 22,
        "lat": -3.3196699619,
        "lon": -79.769203186,
        "tz": "America\/Guayaquil"
    },
    "SEPT": {
        "icao": "SEPT",
        "iata": "PYO",
        "name": "Putumayo Airport",
        "city": "Puerto Putumayo",
        "state": "Sucumbios",
        "country": "EC",
        "elevation": 733,
        "lat": 0.0833330005,
        "lon": -75.9000015259,
        "tz": "America\/Guayaquil"
    },
    "SEPU": {
        "icao": "SEPU",
        "iata": "",
        "name": "Puna Airport",
        "city": "Puna",
        "state": "Guayas",
        "country": "EC",
        "elevation": 3,
        "lat": -2.7336800098,
        "lon": -79.9152984619,
        "tz": "America\/Guayaquil"
    },
    "SEPV": {
        "icao": "SEPV",
        "iata": "PVO",
        "name": "Reales Tamarindos Airport",
        "city": "Portoviejo",
        "state": "Manabi",
        "country": "EC",
        "elevation": 130,
        "lat": -1.0416500568,
        "lon": -80.4721984863,
        "tz": "America\/Guayaquil"
    },
    "SEPX": {
        "icao": "SEPX",
        "iata": "",
        "name": "Payo Airport",
        "city": "Hacienda Payo",
        "state": "Guayas",
        "country": "EC",
        "elevation": 101,
        "lat": -2.3099999428,
        "lon": -79.4599990845,
        "tz": "America\/Guayaquil"
    },
    "SEPZ": {
        "icao": "SEPZ",
        "iata": "",
        "name": "Los Perez Airport",
        "city": "Los Perez",
        "state": "Los-Rios",
        "country": "EC",
        "elevation": 75,
        "lat": -0.9537220001,
        "lon": -79.3751983643,
        "tz": "America\/Guayaquil"
    },
    "SEQE": {
        "icao": "SEQE",
        "iata": "",
        "name": "Quevedo Airport",
        "city": "Quevedo",
        "state": "Los-Rios",
        "country": "EC",
        "elevation": 350,
        "lat": -0.9894000292,
        "lon": -79.4651031494,
        "tz": "America\/Guayaquil"
    },
    "SEQM": {
        "icao": "SEQM",
        "iata": "UIO",
        "name": "Nuevo Aeropuerto Internacional Mariscal Sucre",
        "city": "Quito",
        "state": "Pichincha",
        "country": "EC",
        "elevation": 9200,
        "lat": -0.1291666667,
        "lon": -78.3575,
        "tz": "America\/Guayaquil"
    },
    "SERB": {
        "icao": "SERB",
        "iata": "",
        "name": "Chimborazo Airport",
        "city": "Riobamba",
        "state": "Chimborazo",
        "country": "EC",
        "elevation": 9151,
        "lat": -1.653429985,
        "lon": -78.6560974121,
        "tz": "America\/Guayaquil"
    },
    "SERO": {
        "icao": "SERO",
        "iata": "ETR",
        "name": "Coronel Artilleria Victor Larrea Airport",
        "city": "Santa Rosa",
        "state": "El-Oro",
        "country": "EC",
        "elevation": 170,
        "lat": -3.4351599217,
        "lon": -79.9777984619,
        "tz": "America\/Guayaquil"
    },
    "SESA": {
        "icao": "SESA",
        "iata": "SNC",
        "name": "General Ulpiano Paez Airport",
        "city": "Salinas",
        "state": "Santa-Elena",
        "country": "EC",
        "elevation": 18,
        "lat": -2.2049899101,
        "lon": -80.988899231,
        "tz": "America\/Guayaquil"
    },
    "SESC": {
        "icao": "SESC",
        "iata": "SUQ",
        "name": "Sucua Airport",
        "city": "Sucua",
        "state": "Morona-Santiago",
        "country": "EC",
        "elevation": 3116,
        "lat": -2.4830000401,
        "lon": -78.1669998169,
        "tz": "America\/Guayaquil"
    },
    "SESD": {
        "icao": "SESD",
        "iata": "",
        "name": "Santo Domingo de Los Colorados Airport",
        "city": "Santo Domingo de Los Colorades",
        "state": "Santo-Domingo-de-los-Tsachilas",
        "country": "EC",
        "elevation": 1714,
        "lat": -0.2482219934,
        "lon": -79.2144012451,
        "tz": "America\/Guayaquil"
    },
    "SESM": {
        "icao": "SESM",
        "iata": "PTZ",
        "name": "Rio Amazonas Airport",
        "city": "Shell Mera",
        "state": "Pastaza",
        "country": "EC",
        "elevation": 3465,
        "lat": -1.5052399635,
        "lon": -78.0626983643,
        "tz": "America\/Guayaquil"
    },
    "SEST": {
        "icao": "SEST",
        "iata": "SCY",
        "name": "San Cristobal Airport",
        "city": "San Cristobal",
        "state": "Galapagos",
        "country": "EC",
        "elevation": 62,
        "lat": -0.9102060199,
        "lon": -89.617401123,
        "tz": "Pacific\/Galapagos"
    },
    "SESV": {
        "icao": "SESV",
        "iata": "BHA",
        "name": "Los Perales Airport",
        "city": "Bahia de Caraquez",
        "state": "Manabi",
        "country": "EC",
        "elevation": 10,
        "lat": -0.6081110239,
        "lon": -80.4027023315,
        "tz": "America\/Guayaquil"
    },
    "SETA": {
        "icao": "SETA",
        "iata": "",
        "name": "Taura Airport",
        "city": "Taura",
        "state": "Guayas",
        "country": "EC",
        "elevation": 56,
        "lat": -2.2610399723,
        "lon": -79.6801986694,
        "tz": "America\/Guayaquil"
    },
    "SETE": {
        "icao": "SETE",
        "iata": "",
        "name": "Mayor Galo Torres Airport",
        "city": "Tena",
        "state": "Napo",
        "country": "EC",
        "elevation": 1708,
        "lat": -0.986766994,
        "lon": -77.8195037842,
        "tz": "America\/Guayaquil"
    },
    "SETG": {
        "icao": "SETG",
        "iata": "",
        "name": "Tenguel Airport",
        "city": "Boca de Tenguel",
        "state": "Guayas",
        "country": "EC",
        "elevation": 33,
        "lat": -2.9986000061,
        "lon": -79.7947006226,
        "tz": "America\/Guayaquil"
    },
    "SETH": {
        "icao": "SETH",
        "iata": "TSC",
        "name": "Taisha Airport",
        "city": "Taisha",
        "state": "Morona-Santiago",
        "country": "EC",
        "elevation": 1669,
        "lat": -2.3816699982,
        "lon": -77.5027999878,
        "tz": "America\/Guayaquil"
    },
    "SETI": {
        "icao": "SETI",
        "iata": "TPN",
        "name": "Tiputini Airport",
        "city": "Tiputini",
        "state": "Orellana",
        "country": "EC",
        "elevation": 997,
        "lat": -0.7761110067,
        "lon": -75.5263977051,
        "tz": "America\/Guayaquil"
    },
    "SETM": {
        "icao": "SETM",
        "iata": "LOH",
        "name": "Camilo Ponce Enriquez Airport",
        "city": "La Toma (Catamayo)",
        "state": "Loja",
        "country": "EC",
        "elevation": 4056,
        "lat": -3.9958899021,
        "lon": -79.3719024658,
        "tz": "America\/Guayaquil"
    },
    "SETN": {
        "icao": "SETN",
        "iata": "ESM",
        "name": "General Rivadeneira Airport",
        "city": "Tachina",
        "state": "Esmeraldas",
        "country": "EC",
        "elevation": 32,
        "lat": 0.9785190225,
        "lon": -79.6266021729,
        "tz": "America\/Guayaquil"
    },
    "SETR": {
        "icao": "SETR",
        "iata": "TPC",
        "name": "Tarapoa Airport",
        "city": "Tarapoa",
        "state": "Sucumbios",
        "country": "EC",
        "elevation": 814,
        "lat": -0.1229560003,
        "lon": -76.3377990723,
        "tz": "America\/Guayaquil"
    },
    "SETU": {
        "icao": "SETU",
        "iata": "TUA",
        "name": "Teniente Coronel Luis a Mantilla Airport",
        "city": "Tulcan",
        "state": "Carchi",
        "country": "EC",
        "elevation": 9649,
        "lat": 0.8095059991,
        "lon": -77.7080993652,
        "tz": "America\/Guayaquil"
    },
    "SEVR": {
        "icao": "SEVR",
        "iata": "",
        "name": "El Vergel Airport",
        "city": "El Vergel",
        "state": "Chimborazo",
        "country": "EC",
        "elevation": 9002,
        "lat": -1.75,
        "lon": -78.6166687012,
        "tz": "America\/Guayaquil"
    },
    "SFAL": {
        "icao": "SFAL",
        "iata": "PSY",
        "name": "Stanley Airport",
        "city": "Stanley",
        "state": "",
        "country": "FK",
        "elevation": 75,
        "lat": -51.6856994629,
        "lon": -57.7775993347,
        "tz": "Atlantic\/Stanley"
    }
}